{
  "code": 1,
  "data": {
    "51": {
      "5108": {
        "longitude": 105.843358,
        "510824": {
          "code": "510824",
          "longitude": 105.9347999,
          "latitude": 31.7324286,
          "name": "苍溪县"
        },
        "510801": {
          "code": "510801",
          "longitude": null,
          "latitude": null,
          "name": "市辖区"
        },
        "latitude": 32.4354319,
        "510821": {
          "code": "510821",
          "longitude": 106.2899029,
          "latitude": 32.2289211,
          "name": "旺苍县"
        },
        "510811": {
          "code": "510811",
          "longitude": 105.9628129,
          "latitude": 32.3232602,
          "name": "昭化区"
        },
        "name": "广元市",
        "510823": {
          "code": "510823",
          "longitude": 105.5247653,
          "latitude": 32.2877222,
          "name": "剑阁县"
        },
        "510812": {
          "code": "510812",
          "longitude": 105.8904469,
          "latitude": 32.6439824,
          "name": "朝天区"
        },
        "510802": {
          "code": "510802",
          "longitude": 105.8320284,
          "latitude": 32.4357489,
          "name": "利州区"
        },
        "code": "5108",
        "510822": {
          "code": "510822",
          "longitude": 105.2381873,
          "latitude": 32.5842561,
          "name": "青川县"
        }
      },
      "longitude": 104.0817566,
      "5106": {
        "510683": {
          "code": "510683",
          "longitude": 104.1980481,
          "latitude": 31.343274,
          "name": "绵竹市"
        },
        "longitude": 104.3978083,
        "510603": {
          "code": "510603",
          "longitude": 104.4034195,
          "latitude": 31.1309085,
          "name": "旌阳区"
        },
        "510681": {
          "code": "510681",
          "longitude": 104.2824304,
          "latitude": 30.9761833,
          "name": "广汉市"
        },
        "510682": {
          "code": "510682",
          "longitude": 104.1672564,
          "latitude": 31.1268584,
          "name": "什邡市"
        },
        "code": "5106",
        "510623": {
          "code": "510623",
          "longitude": 104.6787,
          "latitude": 31.0330603,
          "name": "中江县"
        },
        "510601": {
          "code": "510601",
          "longitude": null,
          "latitude": null,
          "name": "市辖区"
        },
        "latitude": 31.127538,
        "510626": {
          "code": "510626",
          "longitude": 104.5103538,
          "latitude": 31.3169446,
          "name": "罗江县"
        },
        "name": "德阳市"
      },
      "5114": {
        "511425": {
          "code": "511425",
          "longitude": 103.839705,
          "latitude": 29.8174778,
          "name": "青神县"
        },
        "511424": {
          "code": "511424",
          "longitude": 103.4121072,
          "latitude": 30.0002313,
          "name": "丹棱县"
        },
        "longitude": 103.8442969,
        "511402": {
          "code": "511402",
          "longitude": 103.7398732,
          "latitude": 30.0823706,
          "name": "东坡区"
        },
        "code": "5114",
        "511423": {
          "code": "511423",
          "longitude": 103.2318842,
          "latitude": 29.7379703,
          "name": "洪雅县"
        },
        "511421": {
          "code": "511421",
          "longitude": 104.2106545,
          "latitude": 29.9837376,
          "name": "仁寿县"
        },
        "latitude": 30.1014839,
        "511403": {
          "code": "511403",
          "longitude": null,
          "latitude": null,
          "name": "彭山区"
        },
        "511401": {
          "code": "511401",
          "longitude": null,
          "latitude": null,
          "name": "市辖区"
        },
        "name": "眉山市"
      },
      "5134": {
        "513424": {
          "code": "513424",
          "longitude": 102.1753299,
          "latitude": 27.4029088,
          "name": "德昌县"
        },
        "longitude": 102.2422886,
        "513428": {
          "code": "513428",
          "longitude": 102.5399387,
          "latitude": 27.376188,
          "name": "普格县"
        },
        "513434": {
          "code": "513434",
          "longitude": 102.5076771,
          "latitude": 28.6397997,
          "name": "越西县"
        },
        "513436": {
          "code": "513436",
          "longitude": 103.1321812,
          "latitude": 28.3286355,
          "name": "美姑县"
        },
        "513427": {
          "code": "513427",
          "longitude": 102.7598047,
          "latitude": 27.0663774,
          "name": "宁南县"
        },
        "513435": {
          "code": "513435",
          "longitude": 102.7717459,
          "latitude": 28.9660682,
          "name": "甘洛县"
        },
        "513426": {
          "code": "513426",
          "longitude": 102.5779617,
          "latitude": 26.6345029,
          "name": "会东县"
        },
        "513431": {
          "code": "513431",
          "longitude": 102.8426743,
          "latitude": 28.0141613,
          "name": "昭觉县"
        },
        "code": "5134",
        "name": "凉山彝族自治州",
        "513423": {
          "code": "513423",
          "longitude": 101.5091872,
          "latitude": 27.4226428,
          "name": "盐源县"
        },
        "latitude": 27.9095234,
        "513401": {
          "code": "513401",
          "longitude": 102.2652664,
          "latitude": 27.8972454,
          "name": "西昌市"
        },
        "513425": {
          "code": "513425",
          "longitude": 102.2446167,
          "latitude": 26.6553216,
          "name": "会理县"
        },
        "513433": {
          "code": "513433",
          "longitude": 102.1770787,
          "latitude": 28.5498086,
          "name": "冕宁县"
        },
        "513422": {
          "code": "513422",
          "longitude": 101.2794185,
          "latitude": 27.9286069,
          "name": "木里藏族自治县"
        },
        "513429": {
          "code": "513429",
          "longitude": 102.8073013,
          "latitude": 27.711428,
          "name": "布拖县"
        },
        "513430": {
          "code": "513430",
          "longitude": 103.2487714,
          "latitude": 27.6968567,
          "name": "金阳县"
        },
        "513437": {
          "code": "513437",
          "longitude": 103.5717416,
          "latitude": 28.2627152,
          "name": "雷波县"
        },
        "513432": {
          "code": "513432",
          "longitude": 102.412523,
          "latitude": 28.3067233,
          "name": "喜德县"
        }
      },
      "5111": {
        "511102": {
          "code": "511102",
          "longitude": 103.7615883,
          "latitude": 29.5554371,
          "name": "市中区"
        },
        "511132": {
          "code": "511132",
          "longitude": 103.1486392,
          "latitude": 29.1603689,
          "name": "峨边彝族自治县"
        },
        "longitude": 103.7012172,
        "511181": {
          "code": "511181",
          "longitude": 103.3985889,
          "latitude": 29.4961191,
          "name": "峨眉山市"
        },
        "511101": {
          "code": "511101",
          "longitude": null,
          "latitude": null,
          "name": "市辖区"
        },
        "511124": {
          "code": "511124",
          "longitude": 104.0632403,
          "latitude": 29.6565631,
          "name": "井研县"
        },
        "511133": {
          "code": "511133",
          "longitude": 103.6762512,
          "latitude": 28.6854488,
          "name": "马边彝族自治县"
        },
        "latitude": 29.4703703,
        "511112": {
          "code": "511112",
          "longitude": 103.8183975,
          "latitude": 29.4067313,
          "name": "五通桥区"
        },
        "name": "乐山市",
        "511111": {
          "code": "511111",
          "longitude": 103.5499942,
          "latitude": 29.4130867,
          "name": "沙湾区"
        },
        "511123": {
          "code": "511123",
          "longitude": 103.9427555,
          "latitude": 29.2354438,
          "name": "犍为县"
        },
        "511126": {
          "code": "511126",
          "longitude": 103.5173249,
          "latitude": 29.7773315,
          "name": "夹江县"
        },
        "511113": {
          "code": "511113",
          "longitude": 103.0786121,
          "latitude": 29.2444311,
          "name": "金口河区"
        },
        "code": "5111",
        "511129": {
          "code": "511129",
          "longitude": 103.8465714,
          "latitude": 29.0451493,
          "name": "沐川县"
        }
      },
      "latitude": 30.6610565,
      "5105": {
        "510501": {
          "code": "510501",
          "longitude": null,
          "latitude": null,
          "name": "市辖区"
        },
        "510524": {
          "code": "510524",
          "longitude": 105.4675484,
          "latitude": 28.0880251,
          "name": "叙永县"
        },
        "510504": {
          "code": "510504",
          "longitude": 105.4377866,
          "latitude": 28.9132544,
          "name": "龙马潭区"
        },
        "510503": {
          "code": "510503",
          "longitude": 105.371182,
          "latitude": 28.7733582,
          "name": "纳溪区"
        },
        "510522": {
          "code": "510522",
          "longitude": 105.7871819,
          "latitude": 28.7592228,
          "name": "合江县"
        },
        "latitude": 28.7635962,
        "510502": {
          "code": "510502",
          "longitude": 105.4534721,
          "latitude": 28.8889933,
          "name": "江阳区"
        },
        "name": "泸州市",
        "510525": {
          "code": "510525",
          "longitude": 105.9564614,
          "latitude": 27.9210991,
          "name": "古蔺县"
        },
        "510521": {
          "code": "510521",
          "longitude": 105.4725695,
          "latitude": 29.1088168,
          "name": "泸县"
        },
        "longitude": 105.4086256,
        "code": "5105"
      },
      "name": "四川省",
      "5101": {
        "510116": {
          "code": "510116",
          "longitude": null,
          "latitude": null,
          "name": "双流区"
        },
        "longitude": 104.0886676,
        "510114": {
          "code": "510114",
          "longitude": 104.1581476,
          "latitude": 30.8211423,
          "name": "新都区"
        },
        "latitude": 30.7105892,
        "510113": {
          "code": "510113",
          "longitude": 104.2592883,
          "latitude": 30.8796309,
          "name": "青白江区"
        },
        "name": "成都市",
        "510183": {
          "code": "510183",
          "longitude": 103.4201539,
          "latitude": 30.3788824,
          "name": "邛崃市"
        },
        "510132": {
          "code": "510132",
          "longitude": 103.8212943,
          "latitude": 30.4260661,
          "name": "新津县"
        },
        "510105": {
          "code": "510105",
          "longitude": 104.0633154,
          "latitude": 30.6684346,
          "name": "青羊区"
        },
        "510106": {
          "code": "510106",
          "longitude": 104.0462887,
          "latitude": 30.6967519,
          "name": "金牛区"
        },
        "code": "5101",
        "510108": {
          "code": "510108",
          "longitude": 104.1173244,
          "latitude": 30.6654077,
          "name": "成华区"
        },
        "510101": {
          "code": "510101",
          "longitude": null,
          "latitude": null,
          "name": "市辖区"
        },
        "510129": {
          "code": "510129",
          "longitude": 103.4442401,
          "latitude": 30.587229,
          "name": "大邑县"
        },
        "510121": {
          "code": "510121",
          "longitude": 104.6239829,
          "latitude": 30.7177653,
          "name": "金堂县"
        },
        "510131": {
          "code": "510131",
          "longitude": 103.4900308,
          "latitude": 30.214538,
          "name": "蒲江县"
        },
        "510182": {
          "code": "510182",
          "longitude": 103.9251173,
          "latitude": 31.162523,
          "name": "彭州市"
        },
        "510124": {
          "code": "510124",
          "longitude": 103.8842726,
          "latitude": 30.8381307,
          "name": "郫县"
        },
        "510107": {
          "code": "510107",
          "longitude": 104.036032,
          "latitude": 30.626954,
          "name": "武侯区"
        },
        "510104": {
          "code": "510104",
          "longitude": 104.0817904,
          "latitude": 30.6548682,
          "name": "锦江区"
        },
        "510115": {
          "code": "510115",
          "longitude": 103.8296199,
          "latitude": 30.6950636,
          "name": "温江区"
        },
        "510184": {
          "code": "510184",
          "longitude": 103.6132514,
          "latitude": 30.7062445,
          "name": "崇州市"
        },
        "510185": {
          "code": "510185",
          "longitude": null,
          "latitude": null,
          "name": "简阳市"
        },
        "510112": {
          "code": "510112",
          "longitude": 104.2662513,
          "latitude": 30.559203,
          "name": "龙泉驿区"
        },
        "510181": {
          "code": "510181",
          "longitude": 103.6122644,
          "latitude": 30.9962987,
          "name": "都江堰市"
        }
      },
      "5113": {
        "longitude": 106.0829973,
        "511322": {
          "code": "511322",
          "longitude": 106.5654516,
          "latitude": 31.0765435,
          "name": "营山县"
        },
        "511321": {
          "code": "511321",
          "longitude": 106.0674298,
          "latitude": 31.3534903,
          "name": "南部县"
        },
        "511324": {
          "code": "511324",
          "longitude": 106.3030994,
          "latitude": 31.2715727,
          "name": "仪陇县"
        },
        "latitude": 30.7912579,
        "511381": {
          "code": "511381",
          "longitude": 105.9773612,
          "latitude": 31.577722,
          "name": "阆中市"
        },
        "name": "南充市",
        "511303": {
          "code": "511303",
          "longitude": 106.1189497,
          "latitude": 30.781617,
          "name": "高坪区"
        },
        "511325": {
          "code": "511325",
          "longitude": 105.9008217,
          "latitude": 30.9952595,
          "name": "西充县"
        },
        "511302": {
          "code": "511302",
          "longitude": 106.0924602,
          "latitude": 30.7965204,
          "name": "顺庆区"
        },
        "code": "5113",
        "511304": {
          "code": "511304",
          "longitude": 106.0717964,
          "latitude": 30.7587459,
          "name": "嘉陵区"
        },
        "511301": {
          "code": "511301",
          "longitude": null,
          "latitude": null,
          "name": "市辖区"
        },
        "511323": {
          "code": "511323",
          "longitude": 106.4122117,
          "latitude": 31.028528,
          "name": "蓬安县"
        }
      },
      "5120": {
        "512022": {
          "code": "512022",
          "longitude": 105.0274301,
          "latitude": 30.3378059,
          "name": "乐至县"
        },
        "longitude": 104.627738,
        "512002": {
          "code": "512002",
          "longitude": 104.7521603,
          "latitude": 30.0740334,
          "name": "雁江区"
        },
        "code": "5120",
        "latitude": 30.1272472,
        "512001": {
          "code": "512001",
          "longitude": null,
          "latitude": null,
          "name": "市辖区"
        },
        "512021": {
          "code": "512021",
          "longitude": 105.3507221,
          "latitude": 29.9870366,
          "name": "安岳县"
        },
        "name": "资阳市"
      },
      "code": "51",
      "5117": {
        "511724": {
          "code": "511724",
          "longitude": 107.2045469,
          "latitude": 30.7362659,
          "name": "大竹县"
        },
        "longitude": 107.5009739,
        "511781": {
          "code": "511781",
          "longitude": 108.0416,
          "latitude": 32.0681379,
          "name": "万源市"
        },
        "511703": {
          "code": "511703",
          "longitude": null,
          "latitude": null,
          "name": "达川区"
        },
        "511702": {
          "code": "511702",
          "longitude": 107.5009739,
          "latitude": 31.2171048,
          "name": "通川区"
        },
        "511722": {
          "code": "511722",
          "longitude": 107.9531836,
          "latitude": 31.5197567,
          "name": "宣汉县"
        },
        "511725": {
          "code": "511725",
          "longitude": 106.9733727,
          "latitude": 30.8364173,
          "name": "渠县"
        },
        "name": "达州市",
        "511723": {
          "code": "511723",
          "longitude": 107.9057813,
          "latitude": 31.1283469,
          "name": "开江县"
        },
        "latitude": 31.2171048,
        "511701": {
          "code": "511701",
          "longitude": null,
          "latitude": null,
          "name": "市辖区"
        },
        "code": "5117"
      },
      "5132": {
        "513223": {
          "code": "513223",
          "longitude": 103.8534808,
          "latitude": 31.6811501,
          "name": "茂县"
        },
        "513227": {
          "code": "513227",
          "longitude": 102.364372,
          "latitude": 30.9990301,
          "name": "小金县"
        },
        "longitude": 102.222451,
        "513201": {
          "code": "513201",
          "longitude": null,
          "latitude": null,
          "name": "马尔康市"
        },
        "513226": {
          "code": "513226",
          "longitude": 102.0638251,
          "latitude": 31.4762743,
          "name": "金川县"
        },
        "513224": {
          "code": "513224",
          "longitude": 103.5989499,
          "latitude": 32.6379835,
          "name": "松潘县"
        },
        "513233": {
          "code": "513233",
          "longitude": 102.5444019,
          "latitude": 32.7908913,
          "name": "红原县"
        },
        "latitude": 31.8991657,
        "513222": {
          "code": "513222",
          "longitude": 102.546111,
          "latitude": 30.911944,
          "name": "理县"
        },
        "name": "阿坝藏族羌族自治州",
        "513232": {
          "code": "513232",
          "longitude": 102.9618287,
          "latitude": 33.5758695,
          "name": "若尔盖县"
        },
        "513231": {
          "code": "513231",
          "longitude": 101.7066514,
          "latitude": 32.9024612,
          "name": "阿坝县"
        },
        "513228": {
          "code": "513228",
          "longitude": 102.9901743,
          "latitude": 32.0616552,
          "name": "黑水县"
        },
        "513225": {
          "code": "513225",
          "longitude": 104.2355025,
          "latitude": 33.2613338,
          "name": "九寨沟县"
        },
        "513230": {
          "code": "513230",
          "longitude": 100.9787536,
          "latitude": 32.2655163,
          "name": "壤塘县"
        },
        "code": "5132",
        "513221": {
          "code": "513221",
          "longitude": 103.267,
          "latitude": 31.084,
          "name": "汶川县"
        }
      },
      "5118": {
        "511823": {
          "code": "511823",
          "longitude": 102.6780725,
          "latitude": 29.3516749,
          "name": "汉源县"
        },
        "longitude": 103.0131662,
        "511824": {
          "code": "511824",
          "longitude": 102.3594582,
          "latitude": 29.2278695,
          "name": "石棉县"
        },
        "511826": {
          "code": "511826",
          "longitude": 102.9283762,
          "latitude": 30.1441252,
          "name": "芦山县"
        },
        "511827": {
          "code": "511827",
          "longitude": 102.8146398,
          "latitude": 30.3681173,
          "name": "宝兴县"
        },
        "511803": {
          "code": "511803",
          "longitude": null,
          "latitude": null,
          "name": "名山区"
        },
        "latitude": 29.9805129,
        "511822": {
          "code": "511822",
          "longitude": 102.8467405,
          "latitude": 29.7929283,
          "name": "荥经县"
        },
        "511825": {
          "code": "511825",
          "longitude": 102.7583134,
          "latitude": 30.0667077,
          "name": "天全县"
        },
        "code": "5118",
        "511801": {
          "code": "511801",
          "longitude": null,
          "latitude": null,
          "name": "市辖区"
        },
        "name": "雅安市",
        "511802": {
          "code": "511802",
          "longitude": 103.0331111,
          "latitude": 30.0053879,
          "name": "雨城区"
        }
      },
      "5103": {
        "510303": {
          "code": "510303",
          "longitude": 104.7151136,
          "latitude": 29.3455494,
          "name": "贡井区"
        },
        "510302": {
          "code": "510302",
          "longitude": 104.7771907,
          "latitude": 29.3374595,
          "name": "自流井区"
        },
        "longitude": 104.8091197,
        "510321": {
          "code": "510321",
          "longitude": 104.3655038,
          "latitude": 29.3927106,
          "name": "荣县"
        },
        "510301": {
          "code": "510301",
          "longitude": null,
          "latitude": null,
          "name": "市辖区"
        },
        "code": "5103",
        "510322": {
          "code": "510322",
          "longitude": 104.9796546,
          "latitude": 29.2041037,
          "name": "富顺县"
        },
        "510304": {
          "code": "510304",
          "longitude": 104.7740257,
          "latitude": 29.3636442,
          "name": "大安区"
        },
        "latitude": 29.2999945,
        "510311": {
          "code": "510311",
          "longitude": 104.8740721,
          "latitude": 29.2725769,
          "name": "沿滩区"
        },
        "name": "自贡市"
      },
      "5115": {
        "511528": {
          "code": "511528",
          "longitude": 105.1095593,
          "latitude": 28.2701047,
          "name": "兴文县"
        },
        "511529": {
          "code": "511529",
          "longitude": 104.0108836,
          "latitude": 28.6727323,
          "name": "屏山县"
        },
        "longitude": 104.6212792,
        "511502": {
          "code": "511502",
          "longitude": 104.6674347,
          "latitude": 28.7931991,
          "name": "翠屏区"
        },
        "511526": {
          "code": "511526",
          "longitude": 104.8259532,
          "latitude": 28.2471313,
          "name": "珙县"
        },
        "511501": {
          "code": "511501",
          "longitude": null,
          "latitude": null,
          "name": "市辖区"
        },
        "latitude": 28.7705275,
        "511521": {
          "code": "511521",
          "longitude": 104.3775523,
          "latitude": 28.8398337,
          "name": "宜宾县"
        },
        "name": "宜宾市",
        "511527": {
          "code": "511527",
          "longitude": 104.580735,
          "latitude": 28.1147516,
          "name": "筠连县"
        },
        "511503": {
          "code": "511503",
          "longitude": null,
          "latitude": null,
          "name": "南溪区"
        },
        "511524": {
          "code": "511524",
          "longitude": 104.9013877,
          "latitude": 28.5253593,
          "name": "长宁县"
        },
        "511523": {
          "code": "511523",
          "longitude": 105.1060939,
          "latitude": 28.657576,
          "name": "江安县"
        },
        "511525": {
          "code": "511525",
          "longitude": 104.5978045,
          "latitude": 28.4636265,
          "name": "高县"
        },
        "code": "5115"
      },
      "5133": {
        "513331": {
          "code": "513331",
          "longitude": 98.8283193,
          "latitude": 31.2114434,
          "name": "白玉县"
        },
        "longitude": 101.8657064,
        "513324": {
          "code": "513324",
          "longitude": 101.5072989,
          "latitude": 29.0003429,
          "name": "九龙县"
        },
        "513334": {
          "code": "513334",
          "longitude": 100.2698135,
          "latitude": 29.99605,
          "name": "理塘县"
        },
        "latitude": 30.1413603,
        "name": "甘孜藏族自治州",
        "513333": {
          "code": "513333",
          "longitude": 100.3327382,
          "latitude": 32.2681291,
          "name": "色达县"
        },
        "code": "5133",
        "513338": {
          "code": "513338",
          "longitude": 99.2863333,
          "latitude": 28.7130413,
          "name": "得荣县"
        },
        "513328": {
          "code": "513328",
          "longitude": 99.9926662,
          "latitude": 31.6229368,
          "name": "甘孜县"
        },
        "513335": {
          "code": "513335",
          "longitude": 99.1077411,
          "latitude": 30.0045889,
          "name": "巴塘县"
        },
        "513336": {
          "code": "513336",
          "longitude": 99.7992897,
          "latitude": 28.9320733,
          "name": "乡城县"
        },
        "513326": {
          "code": "513326",
          "longitude": 101.1252344,
          "latitude": 30.9795408,
          "name": "道孚县"
        },
        "513323": {
          "code": "513323",
          "longitude": 101.8906295,
          "latitude": 30.8786273,
          "name": "丹巴县"
        },
        "513329": {
          "code": "513329",
          "longitude": 100.3113663,
          "latitude": 30.9391697,
          "name": "新龙县"
        },
        "513322": {
          "code": "513322",
          "longitude": 102.2346175,
          "latitude": 29.9141554,
          "name": "泸定县"
        },
        "513327": {
          "code": "513327",
          "longitude": 100.6763721,
          "latitude": 31.3917895,
          "name": "炉霍县"
        },
        "513301": {
          "code": "513301",
          "longitude": null,
          "latitude": null,
          "name": "康定市"
        },
        "513332": {
          "code": "513332",
          "longitude": 98.1028998,
          "latitude": 32.9789591,
          "name": "石渠县"
        },
        "513337": {
          "code": "513337",
          "longitude": 100.2984059,
          "latitude": 29.0370076,
          "name": "稻城县"
        },
        "513330": {
          "code": "513330",
          "longitude": 98.5809124,
          "latitude": 31.8061203,
          "name": "德格县"
        },
        "513325": {
          "code": "513325",
          "longitude": 101.0144269,
          "latitude": 30.0315291,
          "name": "雅江县"
        }
      },
      "5109": {
        "510923": {
          "code": "510923",
          "longitude": 105.2370071,
          "latitude": 30.5941835,
          "name": "大英县"
        },
        "510921": {
          "code": "510921",
          "longitude": 105.705117,
          "latitude": 30.7635584,
          "name": "蓬溪县"
        },
        "longitude": 105.5369318,
        "code": "5109",
        "510903": {
          "code": "510903",
          "longitude": 105.5809736,
          "latitude": 30.4997896,
          "name": "船山区"
        },
        "510904": {
          "code": "510904",
          "longitude": 105.46242,
          "latitude": 30.3501297,
          "name": "安居区"
        },
        "latitude": 30.4275926,
        "510922": {
          "code": "510922",
          "longitude": 105.388391,
          "latitude": 30.8711316,
          "name": "射洪县"
        },
        "510901": {
          "code": "510901",
          "longitude": null,
          "latitude": null,
          "name": "市辖区"
        },
        "name": "遂宁市"
      },
      "5107": {
        "longitude": 104.7430837,
        "510723": {
          "code": "510723",
          "longitude": 105.4649734,
          "latitude": 31.2304633,
          "name": "盐亭县"
        },
        "510727": {
          "code": "510727",
          "longitude": 104.5536447,
          "latitude": 32.4458447,
          "name": "平武县"
        },
        "510703": {
          "code": "510703",
          "longitude": 104.6605897,
          "latitude": 31.4379365,
          "name": "涪城区"
        },
        "510701": {
          "code": "510701",
          "longitude": null,
          "latitude": null,
          "name": "市辖区"
        },
        "510722": {
          "code": "510722",
          "longitude": 105.0054359,
          "latitude": 31.0767548,
          "name": "三台县"
        },
        "latitude": 31.4614774,
        "name": "绵阳市",
        "510705": {
          "code": "510705",
          "longitude": null,
          "latitude": null,
          "name": "安州区"
        },
        "510725": {
          "code": "510725",
          "longitude": 105.2102923,
          "latitude": 31.6692528,
          "name": "梓潼县"
        },
        "510781": {
          "code": "510781",
          "longitude": 104.9064088,
          "latitude": 31.8929352,
          "name": "江油市"
        },
        "code": "5107",
        "510704": {
          "code": "510704",
          "longitude": 104.9299908,
          "latitude": 31.534881,
          "name": "游仙区"
        },
        "510726": {
          "code": "510726",
          "longitude": 104.4368398,
          "latitude": 31.8938917,
          "name": "北川羌族自治县"
        }
      },
      "5116": {
        "511623": {
          "code": "511623",
          "longitude": 106.9305325,
          "latitude": 30.3345927,
          "name": "邻水县"
        },
        "longitude": 106.6332042,
        "511602": {
          "code": "511602",
          "longitude": 106.6416264,
          "latitude": 30.4739298,
          "name": "广安区"
        },
        "511601": {
          "code": "511601",
          "longitude": null,
          "latitude": null,
          "name": "市辖区"
        },
        "511681": {
          "code": "511681",
          "longitude": 106.7831933,
          "latitude": 30.3904051,
          "name": "华蓥市"
        },
        "code": "5116",
        "511622": {
          "code": "511622",
          "longitude": 106.2955034,
          "latitude": 30.3480836,
          "name": "武胜县"
        },
        "511603": {
          "code": "511603",
          "longitude": null,
          "latitude": null,
          "name": "前锋区"
        },
        "latitude": 30.4559247,
        "511621": {
          "code": "511621",
          "longitude": 106.4401066,
          "latitude": 30.5379241,
          "name": "岳池县"
        },
        "name": "广安市"
      },
      "5110": {
        "511011": {
          "code": "511011",
          "longitude": 105.0755382,
          "latitude": 29.5927893,
          "name": "东兴区"
        },
        "511001": {
          "code": "511001",
          "longitude": null,
          "latitude": null,
          "name": "市辖区"
        },
        "longitude": 105.1274228,
        "511028": {
          "code": "511028",
          "longitude": 105.2423716,
          "latitude": 29.3625502,
          "name": "隆昌县"
        },
        "511002": {
          "code": "511002",
          "longitude": 105.06791,
          "latitude": 29.5870983,
          "name": "市中区"
        },
        "code": "5110",
        "511024": {
          "code": "511024",
          "longitude": 104.5690084,
          "latitude": 29.5776747,
          "name": "威远县"
        },
        "latitude": 29.6340538,
        "511025": {
          "code": "511025",
          "longitude": 104.7869325,
          "latitude": 29.8003208,
          "name": "资中县"
        },
        "name": "内江市"
      },
      "5104": {
        "510422": {
          "code": "510422",
          "longitude": 101.8550742,
          "latitude": 26.6832114,
          "name": "盐边县"
        },
        "510421": {
          "code": "510421",
          "longitude": 102.1103346,
          "latitude": 26.8906888,
          "name": "米易县"
        },
        "longitude": 101.7189145,
        "510402": {
          "code": "510402",
          "longitude": 101.7041087,
          "latitude": 26.5464873,
          "name": "东区"
        },
        "510411": {
          "code": "510411",
          "longitude": 101.7385268,
          "latitude": 26.4977685,
          "name": "仁和区"
        },
        "code": "5104",
        "latitude": 26.5837779,
        "510403": {
          "code": "510403",
          "longitude": 101.6306162,
          "latitude": 26.5977852,
          "name": "西区"
        },
        "510401": {
          "code": "510401",
          "longitude": null,
          "latitude": null,
          "name": "市辖区"
        },
        "name": "攀枝花市"
      },
      "5119": {
        "511902": {
          "code": "511902",
          "longitude": 106.7688811,
          "latitude": 31.8514791,
          "name": "巴州区"
        },
        "longitude": 106.7447305,
        "511922": {
          "code": "511922",
          "longitude": 106.842041,
          "latitude": 32.3529113,
          "name": "南江县"
        },
        "code": "5119",
        "latitude": 31.8652392,
        "511921": {
          "code": "511921",
          "longitude": 107.2449946,
          "latitude": 31.911853,
          "name": "通江县"
        },
        "511903": {
          "code": "511903",
          "longitude": null,
          "latitude": null,
          "name": "恩阳区"
        },
        "511901": {
          "code": "511901",
          "longitude": null,
          "latitude": null,
          "name": "市辖区"
        },
        "511923": {
          "code": "511923",
          "longitude": 107.104007,
          "latitude": 31.560875,
          "name": "平昌县"
        },
        "name": "巴中市"
      }
    },
    "41": {
      "4108": {
        "410823": {
          "code": "410823",
          "longitude": 113.4030998,
          "latitude": 35.03308,
          "name": "武陟县"
        },
        "longitude": 113.2743859,
        "410803": {
          "code": "410803",
          "longitude": 113.1831479,
          "latitude": 35.236655,
          "name": "中站区"
        },
        "410801": {
          "code": "410801",
          "longitude": null,
          "latitude": null,
          "name": "市辖区"
        },
        "410825": {
          "code": "410825",
          "longitude": 113.0355084,
          "latitude": 34.9412868,
          "name": "温县"
        },
        "latitude": 35.2690981,
        "410882": {
          "code": "410882",
          "longitude": 112.893126,
          "latitude": 35.1459769,
          "name": "沁阳市"
        },
        "name": "焦作市",
        "410804": {
          "code": "410804",
          "longitude": 113.3187175,
          "latitude": 35.2690718,
          "name": "马村区"
        },
        "410811": {
          "code": "410811",
          "longitude": 113.2546449,
          "latitude": 35.2143587,
          "name": "山阳区"
        },
        "410822": {
          "code": "410822",
          "longitude": 113.0690682,
          "latitude": 35.1990352,
          "name": "博爱县"
        },
        "410821": {
          "code": "410821",
          "longitude": 113.4649515,
          "latitude": 35.3139783,
          "name": "修武县"
        },
        "code": "4108",
        "410883": {
          "code": "410883",
          "longitude": 112.7533722,
          "latitude": 34.9240647,
          "name": "孟州市"
        },
        "410802": {
          "code": "410802",
          "longitude": 113.2293355,
          "latitude": 35.240239,
          "name": "解放区"
        }
      },
      "longitude": 113.6500473,
      "4103": {
        "410302": {
          "code": "410302",
          "longitude": 112.4694872,
          "latitude": 34.6827433,
          "name": "老城区"
        },
        "410327": {
          "code": "410327",
          "longitude": 112.100662,
          "latitude": 34.4901192,
          "name": "宜阳县"
        },
        "410303": {
          "code": "410303",
          "longitude": 112.4371076,
          "latitude": 34.6700027,
          "name": "西工区"
        },
        "longitude": 112.442075,
        "410306": {
          "code": "410306",
          "longitude": 112.5890493,
          "latitude": 34.9008909,
          "name": "吉利区"
        },
        "410323": {
          "code": "410323",
          "longitude": 112.1023893,
          "latitude": 34.8019815,
          "name": "新安县"
        },
        "410328": {
          "code": "410328",
          "longitude": 111.4983022,
          "latitude": 34.3618686,
          "name": "洛宁县"
        },
        "410305": {
          "code": "410305",
          "longitude": 112.3958659,
          "latitude": 34.6578161,
          "name": "涧西区"
        },
        "latitude": 34.65155,
        "410322": {
          "code": "410322",
          "longitude": 112.5103319,
          "latitude": 34.8428838,
          "name": "孟津县"
        },
        "410324": {
          "code": "410324",
          "longitude": 111.6212118,
          "latitude": 33.9215776,
          "name": "栾川县"
        },
        "name": "洛阳市",
        "410381": {
          "code": "410381",
          "longitude": 112.7430832,
          "latitude": 34.6383367,
          "name": "偃师市"
        },
        "410304": {
          "code": "410304",
          "longitude": 112.4927902,
          "latitude": 34.6853812,
          "name": "瀍河回族区"
        },
        "410301": {
          "code": "410301",
          "longitude": null,
          "latitude": null,
          "name": "市辖区"
        },
        "code": "4103",
        "410311": {
          "code": "410311",
          "longitude": 112.4647772,
          "latitude": 34.620027,
          "name": "洛龙区"
        },
        "410326": {
          "code": "410326",
          "longitude": 112.4139762,
          "latitude": 34.0821039,
          "name": "汝阳县"
        },
        "410329": {
          "code": "410329",
          "longitude": 112.4836278,
          "latitude": 34.3862559,
          "name": "伊川县"
        },
        "410325": {
          "code": "410325",
          "longitude": 112.0375657,
          "latitude": 33.9638376,
          "name": "嵩县"
        }
      },
      "latitude": 34.7570343,
      "4117": {
        "411727": {
          "code": "411727",
          "longitude": 114.3624079,
          "latitude": 33.007071,
          "name": "汝南县"
        },
        "longitude": 114.0280223,
        "411728": {
          "code": "411728",
          "longitude": 114.0131843,
          "latitude": 33.1456453,
          "name": "遂平县"
        },
        "411724": {
          "code": "411724",
          "longitude": 114.3928134,
          "latitude": 32.6059408,
          "name": "正阳县"
        },
        "latitude": 32.9831711,
        "411729": {
          "code": "411729",
          "longitude": 114.985528,
          "latitude": 32.749312,
          "name": "新蔡县"
        },
        "411701": {
          "code": "411701",
          "longitude": null,
          "latitude": null,
          "name": "市辖区"
        },
        "name": "驻马店市",
        "411723": {
          "code": "411723",
          "longitude": 114.6395981,
          "latitude": 32.9572392,
          "name": "平舆县"
        },
        "411722": {
          "code": "411722",
          "longitude": 114.2643678,
          "latitude": 33.2631191,
          "name": "上蔡县"
        },
        "411721": {
          "code": "411721",
          "longitude": 114.0215421,
          "latitude": 33.3876825,
          "name": "西平县"
        },
        "code": "4117",
        "411725": {
          "code": "411725",
          "longitude": 114.0264452,
          "latitude": 32.8024352,
          "name": "确山县"
        },
        "411702": {
          "code": "411702",
          "longitude": 114.0404999,
          "latitude": 32.9765291,
          "name": "驿城区"
        },
        "411726": {
          "code": "411726",
          "longitude": 113.3271503,
          "latitude": 32.7244038,
          "name": "泌阳县"
        }
      },
      "name": "河南省",
      "code": "41",
      "4109": {
        "410926": {
          "code": "410926",
          "longitude": 115.5041599,
          "latitude": 35.8519178,
          "name": "范县"
        },
        "longitude": 115.0293338,
        "410923": {
          "code": "410923",
          "longitude": 115.2047503,
          "latitude": 36.0696286,
          "name": "南乐县"
        },
        "410902": {
          "code": "410902",
          "longitude": 115.07447,
          "latitude": 35.7780973,
          "name": "华龙区"
        },
        "code": "4109",
        "410927": {
          "code": "410927",
          "longitude": 115.856452,
          "latitude": 35.9961673,
          "name": "台前县"
        },
        "410901": {
          "code": "410901",
          "longitude": null,
          "latitude": null,
          "name": "市辖区"
        },
        "410928": {
          "code": "410928",
          "longitude": 115.0293231,
          "latitude": 35.7121794,
          "name": "濮阳县"
        },
        "latitude": 35.7621409,
        "410922": {
          "code": "410922",
          "longitude": 115.11289,
          "latitude": 35.9050157,
          "name": "清丰县"
        },
        "name": "濮阳市"
      },
      "4113": {
        "411324": {
          "code": "411324",
          "longitude": 112.2346652,
          "latitude": 33.0338337,
          "name": "镇平县"
        },
        "411301": {
          "code": "411301",
          "longitude": null,
          "latitude": null,
          "name": "市辖区"
        },
        "411330": {
          "code": "411330",
          "longitude": 113.4064901,
          "latitude": 32.3674025,
          "name": "桐柏县"
        },
        "longitude": 112.5484622,
        "411302": {
          "code": "411302",
          "longitude": 112.5395572,
          "latitude": 33.0039129,
          "name": "宛城区"
        },
        "411326": {
          "code": "411326",
          "longitude": 111.4909101,
          "latitude": 33.1379824,
          "name": "淅川县"
        },
        "latitude": 32.9950049,
        "411327": {
          "code": "411327",
          "longitude": 112.9481006,
          "latitude": 33.0561013,
          "name": "社旗县"
        },
        "name": "南阳市",
        "411322": {
          "code": "411322",
          "longitude": 113.0126882,
          "latitude": 33.2547666,
          "name": "方城县"
        },
        "411329": {
          "code": "411329",
          "longitude": 112.3600638,
          "latitude": 32.5208082,
          "name": "新野县"
        },
        "411321": {
          "code": "411321",
          "longitude": 112.4291682,
          "latitude": 33.4897462,
          "name": "南召县"
        },
        "411303": {
          "code": "411303",
          "longitude": 112.5347936,
          "latitude": 32.9861589,
          "name": "卧龙区"
        },
        "code": "4113",
        "411328": {
          "code": "411328",
          "longitude": 112.8405976,
          "latitude": 32.6970871,
          "name": "唐河县"
        },
        "411325": {
          "code": "411325",
          "longitude": 111.8493927,
          "latitude": 33.0448603,
          "name": "内乡县"
        },
        "411323": {
          "code": "411323",
          "longitude": 111.4825952,
          "latitude": 33.2983681,
          "name": "西峡县"
        },
        "411381": {
          "code": "411381",
          "longitude": 111.5,
          "latitude": 32.666667,
          "name": "邓州市"
        }
      },
      "4105": {
        "longitude": 114.2752469,
        "410506": {
          "code": "410506",
          "longitude": 114.3481386,
          "latitude": 36.1190443,
          "name": "龙安区"
        },
        "410505": {
          "code": "410505",
          "longitude": 114.3037856,
          "latitude": 36.109831,
          "name": "殷都区"
        },
        "410527": {
          "code": "410527",
          "longitude": 114.7881818,
          "latitude": 35.8898671,
          "name": "内黄县"
        },
        "410523": {
          "code": "410523",
          "longitude": 114.4643748,
          "latitude": 35.8807053,
          "name": "汤阴县"
        },
        "410503": {
          "code": "410503",
          "longitude": 114.3570971,
          "latitude": 36.1184809,
          "name": "北关区"
        },
        "latitude": 36.0969671,
        "410522": {
          "code": "410522",
          "longitude": 114.4521654,
          "latitude": 36.160001,
          "name": "安阳县"
        },
        "name": "安阳市",
        "code": "4105",
        "410502": {
          "code": "410502",
          "longitude": 114.3596184,
          "latitude": 36.090413,
          "name": "文峰区"
        },
        "410501": {
          "code": "410501",
          "longitude": null,
          "latitude": null,
          "name": "市辖区"
        },
        "410526": {
          "code": "410526",
          "longitude": 114.6880496,
          "latitude": 35.4516598,
          "name": "滑县"
        },
        "410581": {
          "code": "410581",
          "longitude": 113.8599765,
          "latitude": 36.0193315,
          "name": "林州市"
        }
      },
      "4112": {
        "longitude": 111.2002122,
        "411282": {
          "code": "411282",
          "longitude": 110.8942044,
          "latitude": 34.5168383,
          "name": "灵宝市"
        },
        "411224": {
          "code": "411224",
          "longitude": 111.0479057,
          "latitude": 34.0541972,
          "name": "卢氏县"
        },
        "411281": {
          "code": "411281",
          "longitude": 111.8743157,
          "latitude": 34.7471842,
          "name": "义马市"
        },
        "code": "4112",
        "411202": {
          "code": "411202",
          "longitude": 111.2002337,
          "latitude": 34.7724282,
          "name": "湖滨区"
        },
        "411221": {
          "code": "411221",
          "longitude": 111.7618024,
          "latitude": 34.7671932,
          "name": "渑池县"
        },
        "411203": {
          "code": "411203",
          "longitude": null,
          "latitude": null,
          "name": "陕州区"
        },
        "latitude": 34.7716439,
        "411201": {
          "code": "411201",
          "longitude": null,
          "latitude": null,
          "name": "市辖区"
        },
        "name": "三门峡市"
      },
      "4104": {
        "410403": {
          "code": "410403",
          "longitude": 113.3351219,
          "latitude": 33.7347258,
          "name": "卫东区"
        },
        "410482": {
          "code": "410482",
          "longitude": 112.8193223,
          "latitude": 34.1425071,
          "name": "汝州市"
        },
        "longitude": 113.2643867,
        "410411": {
          "code": "410411",
          "longitude": 113.2925177,
          "latitude": 33.7362069,
          "name": "湛河区"
        },
        "410423": {
          "code": "410423",
          "longitude": 112.7473319,
          "latitude": 33.7784874,
          "name": "鲁山县"
        },
        "410404": {
          "code": "410404",
          "longitude": 112.8989732,
          "latitude": 33.8986764,
          "name": "石龙区"
        },
        "410422": {
          "code": "410422",
          "longitude": 113.3208525,
          "latitude": 33.549809,
          "name": "叶县"
        },
        "latitude": 33.7420775,
        "name": "平顶山市",
        "410425": {
          "code": "410425",
          "longitude": 113.2100987,
          "latitude": 33.9923611,
          "name": "郏县"
        },
        "410401": {
          "code": "410401",
          "longitude": null,
          "latitude": null,
          "name": "市辖区"
        },
        "code": "4104",
        "410481": {
          "code": "410481",
          "longitude": 113.5325003,
          "latitude": 33.2937408,
          "name": "舞钢市"
        },
        "410402": {
          "code": "410402",
          "longitude": 114.4632697,
          "latitude": 38.0508791,
          "name": "新华区"
        },
        "410421": {
          "code": "410421",
          "longitude": 113.0126667,
          "latitude": 33.9069757,
          "name": "宝丰县"
        }
      },
      "4111": {
        "411102": {
          "code": "411102",
          "longitude": 114.0064681,
          "latitude": 33.5562734,
          "name": "源汇区"
        },
        "411101": {
          "code": "411101",
          "longitude": null,
          "latitude": null,
          "name": "市辖区"
        },
        "longitude": 114.0165424,
        "code": "4111",
        "411103": {
          "code": "411103",
          "longitude": 114.0069401,
          "latitude": 33.5872388,
          "name": "郾城区"
        },
        "411122": {
          "code": "411122",
          "longitude": 113.9344239,
          "latitude": 33.8094085,
          "name": "临颍县"
        },
        "411104": {
          "code": "411104",
          "longitude": 114.1618967,
          "latitude": 33.5909657,
          "name": "召陵区"
        },
        "latitude": 33.5814113,
        "411121": {
          "code": "411121",
          "longitude": 113.6092865,
          "latitude": 33.4378788,
          "name": "舞阳县"
        },
        "name": "漯河市"
      },
      "4110": {
        "411023": {
          "code": "411023",
          "longitude": 113.9812875,
          "latitude": 34.020457,
          "name": "许昌县"
        },
        "411025": {
          "code": "411025",
          "longitude": 113.5610068,
          "latitude": 33.8585223,
          "name": "襄城县"
        },
        "longitude": 113.8322425,
        "411081": {
          "code": "411081",
          "longitude": 113.3595836,
          "latitude": 34.198111,
          "name": "禹州市"
        },
        "code": "4110",
        "411082": {
          "code": "411082",
          "longitude": 113.8608241,
          "latitude": 34.2411912,
          "name": "长葛市"
        },
        "411024": {
          "code": "411024",
          "longitude": 114.1852963,
          "latitude": 34.0085225,
          "name": "鄢陵县"
        },
        "name": "许昌市",
        "latitude": 34.0221555,
        "411002": {
          "code": "411002",
          "longitude": 113.8222969,
          "latitude": 34.0400004,
          "name": "魏都区"
        },
        "411001": {
          "code": "411001",
          "longitude": null,
          "latitude": null,
          "name": "市辖区"
        }
      },
      "4107": {
        "longitude": 113.8750613,
        "410725": {
          "code": "410725",
          "longitude": 113.9243603,
          "latitude": 35.0348896,
          "name": "原阳县"
        },
        "410702": {
          "code": "410702",
          "longitude": 113.8752115,
          "latitude": 35.304584,
          "name": "红旗区"
        },
        "410782": {
          "code": "410782",
          "longitude": 113.6699581,
          "latitude": 35.5588252,
          "name": "辉县市"
        },
        "410721": {
          "code": "410721",
          "longitude": 113.8841379,
          "latitude": 35.2463551,
          "name": "新乡县"
        },
        "latitude": 35.346898,
        "410711": {
          "code": "410711",
          "longitude": 113.9089644,
          "latitude": 35.3149413,
          "name": "牧野区"
        },
        "name": "新乡市",
        "410781": {
          "code": "410781",
          "longitude": 114.099133,
          "latitude": 35.5122559,
          "name": "卫辉市"
        },
        "410703": {
          "code": "410703",
          "longitude": 113.868109,
          "latitude": 35.3027803,
          "name": "卫滨区"
        },
        "410727": {
          "code": "410727",
          "longitude": 114.5108843,
          "latitude": 35.060748,
          "name": "封丘县"
        },
        "410701": {
          "code": "410701",
          "longitude": null,
          "latitude": null,
          "name": "市辖区"
        },
        "code": "4107",
        "410726": {
          "code": "410726",
          "longitude": 114.1923022,
          "latitude": 35.3013531,
          "name": "延津县"
        },
        "410728": {
          "code": "410728",
          "longitude": 114.7450304,
          "latitude": 35.1829547,
          "name": "长垣县"
        },
        "410704": {
          "code": "410704",
          "longitude": 113.9158952,
          "latitude": 35.384003,
          "name": "凤泉区"
        },
        "410724": {
          "code": "410724",
          "longitude": 113.6453032,
          "latitude": 35.1932926,
          "name": "获嘉县"
        }
      },
      "4115": {
        "411521": {
          "code": "411521",
          "longitude": 114.5338547,
          "latitude": 32.2024795,
          "name": "罗山县"
        },
        "longitude": 114.0886402,
        "411502": {
          "code": "411502",
          "longitude": 114.0587175,
          "latitude": 32.1168025,
          "name": "浉河区"
        },
        "411525": {
          "code": "411525",
          "longitude": 115.678246,
          "latitude": 32.1848656,
          "name": "固始县"
        },
        "latitude": 32.1069153,
        "411524": {
          "code": "411524",
          "longitude": 115.4068601,
          "latitude": 31.798379,
          "name": "商城县"
        },
        "411501": {
          "code": "411501",
          "longitude": null,
          "latitude": null,
          "name": "市辖区"
        },
        "411522": {
          "code": "411522",
          "longitude": 114.9194491,
          "latitude": 32.0100411,
          "name": "光山县"
        },
        "411523": {
          "code": "411523",
          "longitude": 119.0559626,
          "latitude": 25.6513723,
          "name": "新县"
        },
        "411527": {
          "code": "411527",
          "longitude": 115.4200673,
          "latitude": 32.4732381,
          "name": "淮滨县"
        },
        "411503": {
          "code": "411503",
          "longitude": 114.1243565,
          "latitude": 32.1009534,
          "name": "平桥区"
        },
        "code": "4115",
        "name": "信阳市",
        "411526": {
          "code": "411526",
          "longitude": 115.0518215,
          "latitude": 32.1314495,
          "name": "潢川县"
        },
        "411528": {
          "code": "411528",
          "longitude": 114.7404492,
          "latitude": 32.3429501,
          "name": "息县"
        }
      },
      "4102": {
        "410222": {
          "code": "410222",
          "longitude": 114.4759727,
          "latitude": 34.4198854,
          "name": "通许县"
        },
        "410202": {
          "code": "410202",
          "longitude": 114.3545544,
          "latitude": 34.8000345,
          "name": "龙亭区"
        },
        "410204": {
          "code": "410204",
          "longitude": 114.3547475,
          "latitude": 34.7956382,
          "name": "鼓楼区"
        },
        "longitude": 114.3468297,
        "410203": {
          "code": "410203",
          "longitude": 114.3612385,
          "latitude": 34.7958673,
          "name": "顺河回族区"
        },
        "410211": {
          "code": "410211",
          "longitude": 114.3725467,
          "latitude": 34.7925457,
          "name": "金明区"
        },
        "latitude": 34.8173178,
        "410221": {
          "code": "410221",
          "longitude": 114.7701895,
          "latitude": 34.5087581,
          "name": "杞县"
        },
        "410205": {
          "code": "410205",
          "longitude": 114.3485355,
          "latitude": 34.7773897,
          "name": "禹王台区"
        },
        "name": "开封市",
        "410225": {
          "code": "410225",
          "longitude": 114.980464,
          "latitude": 34.8850333,
          "name": "兰考县"
        },
        "410201": {
          "code": "410201",
          "longitude": null,
          "latitude": null,
          "name": "市辖区"
        },
        "code": "4102",
        "410212": {
          "code": "410212",
          "longitude": null,
          "latitude": null,
          "name": "祥符区"
        },
        "410223": {
          "code": "410223",
          "longitude": 114.1647613,
          "latitude": 34.4065998,
          "name": "尉氏县"
        }
      },
      "4101": {
        "410104": {
          "code": "410104",
          "longitude": 113.7489009,
          "latitude": 34.7222322,
          "name": "管城回族区"
        },
        "410185": {
          "code": "410185",
          "longitude": 113.0253911,
          "latitude": 34.4297618,
          "name": "登封市"
        },
        "longitude": 113.6582208,
        "410181": {
          "code": "410181",
          "longitude": 113.0407763,
          "latitude": 34.6898187,
          "name": "巩义市"
        },
        "410184": {
          "code": "410184",
          "longitude": 113.7061572,
          "latitude": 34.4612331,
          "name": "新郑市"
        },
        "410102": {
          "code": "410102",
          "longitude": 113.5593331,
          "latitude": 34.7711063,
          "name": "中原区"
        },
        "410122": {
          "code": "410122",
          "longitude": 113.9999342,
          "latitude": 34.7068781,
          "name": "中牟县"
        },
        "410103": {
          "code": "410103",
          "longitude": 113.6457217,
          "latitude": 34.7305827,
          "name": "二七区"
        },
        "latitude": 34.7803771,
        "410105": {
          "code": "410105",
          "longitude": 113.7268531,
          "latitude": 34.7731597,
          "name": "金水区"
        },
        "410183": {
          "code": "410183",
          "longitude": 113.4204698,
          "latitude": 34.4998989,
          "name": "新密市"
        },
        "410101": {
          "code": "410101",
          "longitude": null,
          "latitude": null,
          "name": "市辖区"
        },
        "410182": {
          "code": "410182",
          "longitude": 113.3237815,
          "latitude": 34.7928452,
          "name": "荥阳市"
        },
        "code": "4101",
        "name": "郑州市",
        "410108": {
          "code": "410108",
          "longitude": 113.620348,
          "latitude": 34.8287676,
          "name": "惠济区"
        },
        "410106": {
          "code": "410106",
          "longitude": 113.2990515,
          "latitude": 34.8111607,
          "name": "上街区"
        }
      },
      "4114": {
        "411401": {
          "code": "411401",
          "longitude": null,
          "latitude": null,
          "name": "市辖区"
        },
        "longitude": 115.6355023,
        "411481": {
          "code": "411481",
          "longitude": 116.4494991,
          "latitude": 33.929287,
          "name": "永城市"
        },
        "411403": {
          "code": "411403",
          "longitude": 115.6186366,
          "latitude": 34.382546,
          "name": "睢阳区"
        },
        "411426": {
          "code": "411426",
          "longitude": 116.1314428,
          "latitude": 34.2375547,
          "name": "夏邑县"
        },
        "411425": {
          "code": "411425",
          "longitude": 115.8649385,
          "latitude": 34.3975794,
          "name": "虞城县"
        },
        "latitude": 34.4162655,
        "name": "商丘市",
        "411423": {
          "code": "411423",
          "longitude": 115.3231108,
          "latitude": 34.4462731,
          "name": "宁陵县"
        },
        "code": "4114",
        "411422": {
          "code": "411422",
          "longitude": 115.0718522,
          "latitude": 34.4453352,
          "name": "睢县"
        },
        "411402": {
          "code": "411402",
          "longitude": 115.6448686,
          "latitude": 34.4434153,
          "name": "梁园区"
        },
        "411421": {
          "code": "411421",
          "longitude": 115.1476622,
          "latitude": 34.6468898,
          "name": "民权县"
        },
        "411424": {
          "code": "411424",
          "longitude": 115.3058481,
          "latitude": 34.0910427,
          "name": "柘城县"
        }
      },
      "4190": {
        "code": "4190",
        "longitude": null,
        "latitude": null,
        "419001": {
          "code": "419001",
          "longitude": 112.5881159,
          "latitude": 35.0903293,
          "name": "济源市"
        },
        "name": "省直辖县级行政区划"
      },
      "4116": {
        "411623": {
          "code": "411623",
          "longitude": 114.6115959,
          "latitude": 33.5424767,
          "name": "商水县"
        },
        "longitude": 114.6575153,
        "411601": {
          "code": "411601",
          "longitude": null,
          "latitude": null,
          "name": "市辖区"
        },
        "latitude": 33.6183539,
        "411626": {
          "code": "411626",
          "longitude": 114.8597538,
          "latitude": 33.732406,
          "name": "淮阳县"
        },
        "name": "周口市",
        "411625": {
          "code": "411625",
          "longitude": 115.1771879,
          "latitude": 33.6447688,
          "name": "郸城县"
        },
        "411602": {
          "code": "411602",
          "longitude": 114.6420228,
          "latitude": 33.6256083,
          "name": "川汇区"
        },
        "411624": {
          "code": "411624",
          "longitude": 115.0985885,
          "latitude": 33.4093497,
          "name": "沈丘县"
        },
        "411628": {
          "code": "411628",
          "longitude": 115.4845262,
          "latitude": 33.8602329,
          "name": "鹿邑县"
        },
        "411681": {
          "code": "411681",
          "longitude": 114.8756003,
          "latitude": 33.4671682,
          "name": "项城市"
        },
        "411627": {
          "code": "411627",
          "longitude": 114.8378885,
          "latitude": 34.0637967,
          "name": "太康县"
        },
        "code": "4116",
        "411622": {
          "code": "411622",
          "longitude": 114.5227718,
          "latitude": 33.7854608,
          "name": "西华县"
        },
        "411621": {
          "code": "411621",
          "longitude": 114.3949163,
          "latitude": 34.0598593,
          "name": "扶沟县"
        }
      },
      "4106": {
        "410602": {
          "code": "410602",
          "longitude": 114.1633666,
          "latitude": 35.954578,
          "name": "鹤山区"
        },
        "410603": {
          "code": "410603",
          "longitude": 114.184438,
          "latitude": 35.8977329,
          "name": "山城区"
        },
        "longitude": 114.2972732,
        "410621": {
          "code": "410621",
          "longitude": 114.550817,
          "latitude": 35.6762369,
          "name": "浚县"
        },
        "code": "4106",
        "latitude": 35.7504828,
        "410611": {
          "code": "410611",
          "longitude": 114.2987859,
          "latitude": 35.7412962,
          "name": "淇滨区"
        },
        "410601": {
          "code": "410601",
          "longitude": null,
          "latitude": null,
          "name": "市辖区"
        },
        "410622": {
          "code": "410622",
          "longitude": 114.1976559,
          "latitude": 35.6077662,
          "name": "淇县"
        },
        "name": "鹤壁市"
      }
    },
    "43": {
      "4303": {
        "430301": {
          "code": "430301",
          "longitude": null,
          "latitude": null,
          "name": "市辖区"
        },
        "430381": {
          "code": "430381",
          "longitude": 112.3277485,
          "latitude": 27.7783796,
          "name": "湘乡市"
        },
        "longitude": 112.9073417,
        "430304": {
          "code": "430304",
          "longitude": 112.9914236,
          "latitude": 27.9048966,
          "name": "岳塘区"
        },
        "430382": {
          "code": "430382",
          "longitude": 112.5235498,
          "latitude": 27.9363796,
          "name": "韶山市"
        },
        "code": "4303",
        "430321": {
          "code": "430321",
          "longitude": 112.7385986,
          "latitude": 27.7096803,
          "name": "湘潭县"
        },
        "latitude": 27.8563223,
        "430302": {
          "code": "430302",
          "longitude": 112.8971708,
          "latitude": 27.8540742,
          "name": "雨湖区"
        },
        "name": "湘潭市"
      },
      "longitude": 112.9812698,
      "4331": {
        "433130": {
          "code": "433130",
          "longitude": 109.4437945,
          "latitude": 29.4576475,
          "name": "龙山县"
        },
        "433101": {
          "code": "433101",
          "longitude": 109.6980894,
          "latitude": 28.2623561,
          "name": "吉首市"
        },
        "longitude": 109.6006179,
        "433127": {
          "code": "433127",
          "longitude": 109.8512542,
          "latitude": 29.0014407,
          "name": "永顺县"
        },
        "latitude": 27.9472226,
        "433126": {
          "code": "433126",
          "longitude": 109.950732,
          "latitude": 28.6169348,
          "name": "古丈县"
        },
        "name": "湘西土家族苗族自治州",
        "433122": {
          "code": "433122",
          "longitude": 110.2196074,
          "latitude": 28.2166374,
          "name": "泸溪县"
        },
        "433124": {
          "code": "433124",
          "longitude": 109.482075,
          "latitude": 28.5720286,
          "name": "花垣县"
        },
        "code": "4331",
        "433123": {
          "code": "433123",
          "longitude": 109.5672727,
          "latitude": 28.0769691,
          "name": "凤凰县"
        },
        "433125": {
          "code": "433125",
          "longitude": 109.6504319,
          "latitude": 28.7088822,
          "name": "保靖县"
        }
      },
      "4312": {
        "431281": {
          "code": "431281",
          "longitude": 109.8338413,
          "latitude": 27.203906,
          "name": "洪江市"
        },
        "longitude": 109.9976385,
        "431227": {
          "code": "431227",
          "longitude": 109.1718829,
          "latitude": 27.3580276,
          "name": "新晃侗族自治县"
        },
        "431230": {
          "code": "431230",
          "longitude": 109.7843599,
          "latitude": 26.1580381,
          "name": "通道侗族自治县"
        },
        "431229": {
          "code": "431229",
          "longitude": 109.696244,
          "latitude": 26.5750753,
          "name": "靖州苗族侗族自治县"
        },
        "431202": {
          "code": "431202",
          "longitude": 109.9650872,
          "latitude": 27.5494294,
          "name": "鹤城区"
        },
        "431224": {
          "code": "431224",
          "longitude": 110.5940008,
          "latitude": 27.909988,
          "name": "溆浦县"
        },
        "latitude": 27.5558405,
        "431228": {
          "code": "431228",
          "longitude": 109.6851397,
          "latitude": 27.4434111,
          "name": "芷江侗族自治县"
        },
        "name": "怀化市",
        "431223": {
          "code": "431223",
          "longitude": 110.1839232,
          "latitude": 28.0063468,
          "name": "辰溪县"
        },
        "431201": {
          "code": "431201",
          "longitude": null,
          "latitude": null,
          "name": "市辖区"
        },
        "431222": {
          "code": "431222",
          "longitude": 110.3938437,
          "latitude": 28.4527226,
          "name": "沅陵县"
        },
        "431221": {
          "code": "431221",
          "longitude": 110.2026665,
          "latitude": 27.545301,
          "name": "中方县"
        },
        "431226": {
          "code": "431226",
          "longitude": 109.8025775,
          "latitude": 27.8655609,
          "name": "麻阳苗族自治县"
        },
        "code": "4312",
        "431225": {
          "code": "431225",
          "longitude": 109.7209632,
          "latitude": 26.872813,
          "name": "会同县"
        }
      },
      "4307": {
        "430723": {
          "code": "430723",
          "longitude": 111.647079,
          "latitude": 29.6817892,
          "name": "澧县"
        },
        "longitude": 111.699146,
        "430703": {
          "code": "430703",
          "longitude": 111.6569281,
          "latitude": 28.8083452,
          "name": "鼎城区"
        },
        "430721": {
          "code": "430721",
          "longitude": 112.1491349,
          "latitude": 29.4516312,
          "name": "安乡县"
        },
        "430722": {
          "code": "430722",
          "longitude": 112.0076323,
          "latitude": 28.8739622,
          "name": "汉寿县"
        },
        "latitude": 29.0434985,
        "name": "常德市",
        "430726": {
          "code": "430726",
          "longitude": 111.0248494,
          "latitude": 29.6980066,
          "name": "石门县"
        },
        "430701": {
          "code": "430701",
          "longitude": null,
          "latitude": null,
          "name": "市辖区"
        },
        "430725": {
          "code": "430725",
          "longitude": 111.2886393,
          "latitude": 28.9189079,
          "name": "桃源县"
        },
        "code": "4307",
        "430702": {
          "code": "430702",
          "longitude": 111.8663228,
          "latitude": 29.1720327,
          "name": "武陵区"
        },
        "430781": {
          "code": "430781",
          "longitude": 111.9050002,
          "latitude": 29.5099762,
          "name": "津市市"
        },
        "430724": {
          "code": "430724",
          "longitude": 111.6374767,
          "latitude": 29.5166146,
          "name": "临澧县"
        }
      },
      "4306": {
        "longitude": 113.0357122,
        "430682": {
          "code": "430682",
          "longitude": 113.5244322,
          "latitude": 29.5227857,
          "name": "临湘市"
        },
        "430624": {
          "code": "430624",
          "longitude": 112.7778447,
          "latitude": 28.7687406,
          "name": "湘阴县"
        },
        "430603": {
          "code": "430603",
          "longitude": 113.2719076,
          "latitude": 29.4735741,
          "name": "云溪区"
        },
        "430626": {
          "code": "430626",
          "longitude": 113.6534035,
          "latitude": 28.7629755,
          "name": "平江县"
        },
        "430611": {
          "code": "430611",
          "longitude": 113.0064332,
          "latitude": 29.4611693,
          "name": "君山区"
        },
        "latitude": 29.4448858,
        "430681": {
          "code": "430681",
          "longitude": 113.1614542,
          "latitude": 28.7430348,
          "name": "汨罗市"
        },
        "name": "岳阳市",
        "430621": {
          "code": "430621",
          "longitude": 113.2534003,
          "latitude": 29.2202197,
          "name": "岳阳县"
        },
        "430623": {
          "code": "430623",
          "longitude": 112.6741719,
          "latitude": 29.4849873,
          "name": "华容县"
        },
        "code": "4306",
        "430601": {
          "code": "430601",
          "longitude": null,
          "latitude": null,
          "name": "市辖区"
        },
        "430602": {
          "code": "430602",
          "longitude": 113.1297505,
          "latitude": 29.3718442,
          "name": "岳阳楼区"
        }
      },
      "4301": {
        "430101": {
          "code": "430101",
          "longitude": null,
          "latitude": null,
          "name": "市辖区"
        },
        "longitude": 113.0093515,
        "430181": {
          "code": "430181",
          "longitude": 113.7201691,
          "latitude": 28.1963286,
          "name": "浏阳市"
        },
        "430103": {
          "code": "430103",
          "longitude": 112.9692256,
          "latitude": 28.1147043,
          "name": "天心区"
        },
        "430104": {
          "code": "430104",
          "longitude": 112.9189289,
          "latitude": 28.1940497,
          "name": "岳麓区"
        },
        "430111": {
          "code": "430111",
          "longitude": 113.0493271,
          "latitude": 28.1170795,
          "name": "雨花区"
        },
        "430112": {
          "code": "430112",
          "longitude": null,
          "latitude": null,
          "name": "望城区"
        },
        "name": "长沙市",
        "latitude": 28.208469,
        "430124": {
          "code": "430124",
          "longitude": 112.3397541,
          "latitude": 28.1821819,
          "name": "宁乡县"
        },
        "430102": {
          "code": "430102",
          "longitude": 113.0417633,
          "latitude": 28.1962435,
          "name": "芙蓉区"
        },
        "code": "4301",
        "430121": {
          "code": "430121",
          "longitude": 113.2289708,
          "latitude": 28.2865071,
          "name": "长沙县"
        },
        "430105": {
          "code": "430105",
          "longitude": 112.9878831,
          "latitude": 28.2916088,
          "name": "开福区"
        }
      },
      "latitude": 28.2008247,
      "4311": {
        "431121": {
          "code": "431121",
          "longitude": 111.8406594,
          "latitude": 26.5801223,
          "name": "祁阳县"
        },
        "431122": {
          "code": "431122",
          "longitude": 111.299808,
          "latitude": 26.3975494,
          "name": "东安县"
        },
        "longitude": 111.614002,
        "431129": {
          "code": "431129",
          "longitude": 111.5793049,
          "latitude": 25.1855929,
          "name": "江华瑶族自治县"
        },
        "431127": {
          "code": "431127",
          "longitude": 112.196728,
          "latitude": 25.3699025,
          "name": "蓝山县"
        },
        "latitude": 26.2262275,
        "431125": {
          "code": "431125",
          "longitude": 111.3439143,
          "latitude": 25.273543,
          "name": "江永县"
        },
        "431101": {
          "code": "431101",
          "longitude": null,
          "latitude": null,
          "name": "市辖区"
        },
        "431124": {
          "code": "431124",
          "longitude": 111.6007948,
          "latitude": 25.5264389,
          "name": "道县"
        },
        "name": "永州市",
        "431103": {
          "code": "431103",
          "longitude": 111.5921474,
          "latitude": 26.4610742,
          "name": "冷水滩区"
        },
        "code": "4311",
        "431128": {
          "code": "431128",
          "longitude": 112.221576,
          "latitude": 25.9065696,
          "name": "新田县"
        },
        "431102": {
          "code": "431102",
          "longitude": 111.6311359,
          "latitude": 26.2218868,
          "name": "零陵区"
        },
        "431123": {
          "code": "431123",
          "longitude": 111.6599643,
          "latitude": 25.9619128,
          "name": "双牌县"
        },
        "431126": {
          "code": "431126",
          "longitude": 111.945802,
          "latitude": 25.5709755,
          "name": "宁远县"
        }
      },
      "4304": {
        "longitude": 112.6369536,
        "430405": {
          "code": "430405",
          "longitude": 112.6201737,
          "latitude": 26.8946598,
          "name": "珠晖区"
        },
        "430422": {
          "code": "430422",
          "longitude": 112.8948104,
          "latitude": 26.764378,
          "name": "衡南县"
        },
        "430426": {
          "code": "430426",
          "longitude": 111.9421756,
          "latitude": 26.7658724,
          "name": "祁东县"
        },
        "430412": {
          "code": "430412",
          "longitude": 112.7299511,
          "latitude": 27.2439468,
          "name": "南岳区"
        },
        "430423": {
          "code": "430423",
          "longitude": 112.8055573,
          "latitude": 27.2215192,
          "name": "衡山县"
        },
        "430407": {
          "code": "430407",
          "longitude": 112.6106894,
          "latitude": 26.9023812,
          "name": "石鼓区"
        },
        "latitude": 26.8833876,
        "430408": {
          "code": "430408",
          "longitude": 112.6032972,
          "latitude": 26.8965065,
          "name": "蒸湘区"
        },
        "430481": {
          "code": "430481",
          "longitude": 112.9277587,
          "latitude": 26.4109356,
          "name": "耒阳市"
        },
        "430401": {
          "code": "430401",
          "longitude": null,
          "latitude": null,
          "name": "市辖区"
        },
        "430482": {
          "code": "430482",
          "longitude": 112.4126029,
          "latitude": 26.3635629,
          "name": "常宁市"
        },
        "430406": {
          "code": "430406",
          "longitude": 112.6163864,
          "latitude": 26.8887368,
          "name": "雁峰区"
        },
        "430421": {
          "code": "430421",
          "longitude": 112.3670805,
          "latitude": 27.1171062,
          "name": "衡阳县"
        },
        "code": "4304",
        "name": "衡阳市",
        "430424": {
          "code": "430424",
          "longitude": 113.0130637,
          "latitude": 27.1104786,
          "name": "衡东县"
        }
      },
      "name": "湖南省",
      "4305": {
        "430523": {
          "code": "430523",
          "longitude": 111.2738013,
          "latitude": 26.9906378,
          "name": "邵阳县"
        },
        "longitude": 111.4818656,
        "430511": {
          "code": "430511",
          "longitude": 111.4522004,
          "latitude": 27.2464936,
          "name": "北塔区"
        },
        "430501": {
          "code": "430501",
          "longitude": null,
          "latitude": null,
          "name": "市辖区"
        },
        "430521": {
          "code": "430521",
          "longitude": 111.7442608,
          "latitude": 27.2589405,
          "name": "邵东县"
        },
        "430522": {
          "code": "430522",
          "longitude": 111.4586592,
          "latitude": 27.320916,
          "name": "新邵县"
        },
        "latitude": 27.2397879,
        "430529": {
          "code": "430529",
          "longitude": 110.3118968,
          "latitude": 26.3552762,
          "name": "城步苗族自治县"
        },
        "name": "邵阳市",
        "430524": {
          "code": "430524",
          "longitude": 111.0324347,
          "latitude": 27.1139739,
          "name": "隆回县"
        },
        "430525": {
          "code": "430525",
          "longitude": 110.5758476,
          "latitude": 27.0603201,
          "name": "洞口县"
        },
        "430527": {
          "code": "430527",
          "longitude": 110.1556528,
          "latitude": 26.5819549,
          "name": "绥宁县"
        },
        "430503": {
          "code": "430503",
          "longitude": 111.4541316,
          "latitude": 27.2333203,
          "name": "大祥区"
        },
        "code": "4305",
        "430581": {
          "code": "430581",
          "longitude": 110.6318843,
          "latitude": 26.7266001,
          "name": "武冈市"
        },
        "430502": {
          "code": "430502",
          "longitude": 111.4971542,
          "latitude": 27.2329101,
          "name": "双清区"
        },
        "430528": {
          "code": "430528",
          "longitude": 110.8566213,
          "latitude": 26.4334185,
          "name": "新宁县"
        }
      },
      "4308": {
        "430811": {
          "code": "430811",
          "longitude": 110.550431,
          "latitude": 29.3457271,
          "name": "武陵源区"
        },
        "430801": {
          "code": "430801",
          "longitude": null,
          "latitude": null,
          "name": "市辖区"
        },
        "longitude": 110.4753613,
        "430821": {
          "code": "430821",
          "longitude": 111.1396694,
          "latitude": 29.4299733,
          "name": "慈利县"
        },
        "430802": {
          "code": "430802",
          "longitude": 110.4746532,
          "latitude": 29.1338698,
          "name": "永定区"
        },
        "code": "4308",
        "430822": {
          "code": "430822",
          "longitude": 110.1639247,
          "latitude": 29.3997212,
          "name": "桑植县"
        },
        "latitude": 29.2054616,
        "name": "张家界市"
      },
      "4313": {
        "431322": {
          "code": "431322",
          "longitude": 111.3274133,
          "latitude": 27.7265197,
          "name": "新化县"
        },
        "431382": {
          "code": "431382",
          "longitude": 111.6643202,
          "latitude": 27.6925439,
          "name": "涟源市"
        },
        "longitude": 111.9960022,
        "431302": {
          "code": "431302",
          "longitude": 112.0019352,
          "latitude": 27.7299195,
          "name": "娄星区"
        },
        "431301": {
          "code": "431301",
          "longitude": null,
          "latitude": null,
          "name": "市辖区"
        },
        "code": "4313",
        "431381": {
          "code": "431381",
          "longitude": 111.4349806,
          "latitude": 27.6862547,
          "name": "冷水江市"
        },
        "431321": {
          "code": "431321",
          "longitude": 112.1924472,
          "latitude": 27.4591395,
          "name": "双峰县"
        },
        "latitude": 27.7016919,
        "name": "娄底市"
      },
      "code": "43",
      "4302": {
        "430223": {
          "code": "430223",
          "longitude": 113.5176086,
          "latitude": 27.1002883,
          "name": "攸县"
        },
        "430211": {
          "code": "430211",
          "longitude": 113.1234848,
          "latitude": 27.8307556,
          "name": "天元区"
        },
        "longitude": 113.1686962,
        "430225": {
          "code": "430225",
          "longitude": 113.8449883,
          "latitude": 26.3668794,
          "name": "炎陵县"
        },
        "430202": {
          "code": "430202",
          "longitude": 113.173492,
          "latitude": 27.8558765,
          "name": "荷塘区"
        },
        "430281": {
          "code": "430281",
          "longitude": 113.4685349,
          "latitude": 27.6703213,
          "name": "醴陵市"
        },
        "latitude": 27.8872599,
        "name": "株洲市",
        "430224": {
          "code": "430224",
          "longitude": 113.6176658,
          "latitude": 26.8122841,
          "name": "茶陵县"
        },
        "430203": {
          "code": "430203",
          "longitude": 113.1597269,
          "latitude": 27.824408,
          "name": "芦淞区"
        },
        "code": "4302",
        "430221": {
          "code": "430221",
          "longitude": 113.1655848,
          "latitude": 27.5425232,
          "name": "株洲县"
        },
        "430201": {
          "code": "430201",
          "longitude": null,
          "latitude": null,
          "name": "市辖区"
        },
        "430204": {
          "code": "430204",
          "longitude": 113.1176913,
          "latitude": 27.8667654,
          "name": "石峰区"
        }
      },
      "4309": {
        "430981": {
          "code": "430981",
          "longitude": 112.3559546,
          "latitude": 28.8470419,
          "name": "沅江市"
        },
        "longitude": 112.3474467,
        "430901": {
          "code": "430901",
          "longitude": null,
          "latitude": null,
          "name": "市辖区"
        },
        "430922": {
          "code": "430922",
          "longitude": 112.1558189,
          "latitude": 28.5180818,
          "name": "桃江县"
        },
        "430923": {
          "code": "430923",
          "longitude": 111.2128079,
          "latitude": 28.374089,
          "name": "安化县"
        },
        "code": "4309",
        "430903": {
          "code": "430903",
          "longitude": 112.3741615,
          "latitude": 28.5793965,
          "name": "赫山区"
        },
        "430902": {
          "code": "430902",
          "longitude": 112.3244762,
          "latitude": 28.5909561,
          "name": "资阳区"
        },
        "latitude": 28.5828447,
        "430921": {
          "code": "430921",
          "longitude": 112.4093306,
          "latitude": 29.3712365,
          "name": "南县"
        },
        "name": "益阳市"
      },
      "4310": {
        "431022": {
          "code": "431022",
          "longitude": 112.9488194,
          "latitude": 25.3999603,
          "name": "宜章县"
        },
        "431003": {
          "code": "431003",
          "longitude": 113.0424392,
          "latitude": 25.8003645,
          "name": "苏仙区"
        },
        "longitude": 113.0289745,
        "431025": {
          "code": "431025",
          "longitude": 112.5634611,
          "latitude": 25.275561,
          "name": "临武县"
        },
        "431024": {
          "code": "431024",
          "longitude": 112.3690224,
          "latitude": 25.5875237,
          "name": "嘉禾县"
        },
        "431023": {
          "code": "431023",
          "longitude": 113.1165218,
          "latitude": 26.1271506,
          "name": "永兴县"
        },
        "431026": {
          "code": "431026",
          "longitude": 113.6849785,
          "latitude": 25.5505049,
          "name": "汝城县"
        },
        "431001": {
          "code": "431001",
          "longitude": null,
          "latitude": null,
          "name": "市辖区"
        },
        "latitude": 25.7952836,
        "name": "郴州市",
        "431027": {
          "code": "431027",
          "longitude": 113.9446163,
          "latitude": 26.0776191,
          "name": "桂东县"
        },
        "code": "4310",
        "431028": {
          "code": "431028",
          "longitude": 113.2694399,
          "latitude": 26.709053,
          "name": "安仁县"
        },
        "431002": {
          "code": "431002",
          "longitude": 113.0110359,
          "latitude": 25.7840584,
          "name": "北湖区"
        },
        "431021": {
          "code": "431021",
          "longitude": 112.7341461,
          "latitude": 25.7541162,
          "name": "桂阳县"
        },
        "431081": {
          "code": "431081",
          "longitude": 113.2361484,
          "latitude": 25.9762461,
          "name": "资兴市"
        }
      }
    },
    "81": {
      "code": "81",
      "longitude": 114.139452,
      "latitude": 22.391577,
      "name": "香港特别行政区"
    },
    "82": {
      "code": "82",
      "longitude": 113.567841,
      "latitude": 22.167654,
      "name": "澳门特别行政区"
    },
    "36": {
      "longitude": 115.8999176,
      "3605": {
        "360502": {
          "code": "360502",
          "longitude": 114.944576,
          "latitude": 27.8003808,
          "name": "渝水区"
        },
        "360501": {
          "code": "360501",
          "longitude": null,
          "latitude": null,
          "name": "市辖区"
        },
        "longitude": 114.9341154,
        "code": "3605",
        "360521": {
          "code": "360521",
          "longitude": 114.676044,
          "latitude": 27.8102789,
          "name": "分宜县"
        },
        "latitude": 27.804101,
        "name": "新余市"
      },
      "3611": {
        "361123": {
          "code": "361123",
          "longitude": 118.2420516,
          "latitude": 28.6763093,
          "name": "玉山县"
        },
        "longitude": 117.9763734,
        "361181": {
          "code": "361181",
          "longitude": 117.5787091,
          "latitude": 28.9464669,
          "name": "德兴市"
        },
        "361121": {
          "code": "361121",
          "longitude": 117.9078484,
          "latitude": 28.4489871,
          "name": "上饶县"
        },
        "361125": {
          "code": "361125",
          "longitude": 117.5964546,
          "latitude": 28.4071141,
          "name": "横峰县"
        },
        "latitude": 28.4433176,
        "361127": {
          "code": "361127",
          "longitude": 116.6956508,
          "latitude": 28.7023044,
          "name": "余干县"
        },
        "name": "上饶市",
        "361129": {
          "code": "361129",
          "longitude": 117.0701945,
          "latitude": 28.6940699,
          "name": "万年县"
        },
        "361102": {
          "code": "361102",
          "longitude": 117.9668248,
          "latitude": 28.4312134,
          "name": "信州区"
        },
        "361126": {
          "code": "361126",
          "longitude": 117.4495876,
          "latitude": 28.3780442,
          "name": "弋阳县"
        },
        "361101": {
          "code": "361101",
          "longitude": null,
          "latitude": null,
          "name": "市辖区"
        },
        "code": "3611",
        "361103": {
          "code": "361103",
          "longitude": null,
          "latitude": null,
          "name": "广丰区"
        },
        "361130": {
          "code": "361130",
          "longitude": 117.862004,
          "latitude": 29.2479884,
          "name": "婺源县"
        },
        "361128": {
          "code": "361128",
          "longitude": 116.6744399,
          "latitude": 28.9967864,
          "name": "鄱阳县"
        },
        "361124": {
          "code": "361124",
          "longitude": 117.7094507,
          "latitude": 28.3152148,
          "name": "铅山县"
        }
      },
      "3602": {
        "360222": {
          "code": "360222",
          "longitude": 117.3731768,
          "latitude": 29.5347722,
          "name": "浮梁县"
        },
        "longitude": 117.1444917,
        "360202": {
          "code": "360202",
          "longitude": 117.1836841,
          "latitude": 29.2734192,
          "name": "昌江区"
        },
        "360201": {
          "code": "360201",
          "longitude": null,
          "latitude": null,
          "name": "市辖区"
        },
        "code": "3602",
        "latitude": 29.2345544,
        "360281": {
          "code": "360281",
          "longitude": 117.2811019,
          "latitude": 28.981283,
          "name": "乐平市"
        },
        "360203": {
          "code": "360203",
          "longitude": 117.2023308,
          "latitude": 29.3012763,
          "name": "珠山区"
        },
        "name": "景德镇市"
      },
      "3610": {
        "361021": {
          "code": "361021",
          "longitude": 116.6446567,
          "latitude": 27.5527491,
          "name": "南城县"
        },
        "361025": {
          "code": "361025",
          "longitude": 115.8378911,
          "latitude": 27.4204429,
          "name": "乐安县"
        },
        "longitude": 116.3626063,
        "361001": {
          "code": "361001",
          "longitude": null,
          "latitude": null,
          "name": "市辖区"
        },
        "361027": {
          "code": "361027",
          "longitude": 116.7754304,
          "latitude": 27.9083383,
          "name": "金溪县"
        },
        "361028": {
          "code": "361028",
          "longitude": 117.0602596,
          "latitude": 27.7060994,
          "name": "资溪县"
        },
        "361030": {
          "code": "361030",
          "longitude": 116.3257527,
          "latitude": 26.8372635,
          "name": "广昌县"
        },
        "latitude": 27.9792712,
        "361002": {
          "code": "361002",
          "longitude": 116.3600636,
          "latitude": 27.9772815,
          "name": "临川区"
        },
        "361022": {
          "code": "361022",
          "longitude": 116.9118047,
          "latitude": 27.2950622,
          "name": "黎川县"
        },
        "361029": {
          "code": "361029",
          "longitude": 116.5904653,
          "latitude": 28.2361201,
          "name": "东乡县"
        },
        "361026": {
          "code": "361026",
          "longitude": 116.2221229,
          "latitude": 27.5461476,
          "name": "宜黄县"
        },
        "code": "3610",
        "361024": {
          "code": "361024",
          "longitude": 116.0611689,
          "latitude": 27.7646812,
          "name": "崇仁县"
        },
        "361023": {
          "code": "361023",
          "longitude": 116.5257275,
          "latitude": 27.2184471,
          "name": "南丰县"
        },
        "name": "抚州市"
      },
      "3601": {
        "360101": {
          "code": "360101",
          "longitude": null,
          "latitude": null,
          "name": "市辖区"
        },
        "longitude": 115.8269048,
        "360103": {
          "code": "360103",
          "longitude": 115.8772874,
          "latitude": 28.6568887,
          "name": "西湖区"
        },
        "360112": {
          "code": "360112",
          "longitude": null,
          "latitude": null,
          "name": "新建区"
        },
        "360104": {
          "code": "360104",
          "longitude": 115.9145486,
          "latitude": 28.6318522,
          "name": "青云谱区"
        },
        "360111": {
          "code": "360111",
          "longitude": 115.9621418,
          "latitude": 28.6829828,
          "name": "青山湖区"
        },
        "360102": {
          "code": "360102",
          "longitude": 115.8990133,
          "latitude": 28.6849123,
          "name": "东湖区"
        },
        "360123": {
          "code": "360123",
          "longitude": 115.6037235,
          "latitude": 28.7995549,
          "name": "安义县"
        },
        "latitude": 28.7467787,
        "name": "南昌市",
        "360105": {
          "code": "360105",
          "longitude": 115.730989,
          "latitude": 28.7148668,
          "name": "湾里区"
        },
        "360124": {
          "code": "360124",
          "longitude": 116.2931263,
          "latitude": 28.4623626,
          "name": "进贤县"
        },
        "code": "3601",
        "360121": {
          "code": "360121",
          "longitude": 116.0698271,
          "latitude": 28.6052367,
          "name": "南昌县"
        }
      },
      "latitude": 28.6759911,
      "3604": {
        "longitude": 115.9981048,
        "360425": {
          "code": "360425",
          "longitude": 115.8220339,
          "latitude": 29.124451,
          "name": "永修县"
        },
        "360426": {
          "code": "360426",
          "longitude": 115.6068242,
          "latitude": 29.3870176,
          "name": "德安县"
        },
        "360401": {
          "code": "360401",
          "longitude": null,
          "latitude": null,
          "name": "市辖区"
        },
        "360430": {
          "code": "360430",
          "longitude": 116.6226733,
          "latitude": 29.8292895,
          "name": "彭泽县"
        },
        "latitude": 29.6101497,
        "360403": {
          "code": "360403",
          "longitude": 115.9904015,
          "latitude": 29.7274615,
          "name": "浔阳区"
        },
        "name": "九江市",
        "360483": {
          "code": "360483",
          "longitude": null,
          "latitude": null,
          "name": "庐山市"
        },
        "360421": {
          "code": "360421",
          "longitude": 115.7858777,
          "latitude": 29.5990678,
          "name": "九江县"
        },
        "360402": {
          "code": "360402",
          "longitude": 115.9892213,
          "latitude": 29.6717778,
          "name": "濂溪区"
        },
        "360423": {
          "code": "360423",
          "longitude": 114.9631047,
          "latitude": 29.3264881,
          "name": "武宁县"
        },
        "360424": {
          "code": "360424",
          "longitude": 114.4126296,
          "latitude": 29.0101014,
          "name": "修水县"
        },
        "360428": {
          "code": "360428",
          "longitude": 116.3132966,
          "latitude": 29.3423416,
          "name": "都昌县"
        },
        "code": "3604",
        "360482": {
          "code": "360482",
          "longitude": null,
          "latitude": null,
          "name": "共青城市"
        },
        "360429": {
          "code": "360429",
          "longitude": 116.2744582,
          "latitude": 29.6791047,
          "name": "湖口县"
        },
        "360481": {
          "code": "360481",
          "longitude": 115.4179752,
          "latitude": 29.6201858,
          "name": "瑞昌市"
        }
      },
      "name": "江西省",
      "3607": {
        "longitude": 114.9418294,
        "360734": {
          "code": "360734",
          "longitude": 115.6501365,
          "latitude": 24.9547599,
          "name": "寻乌县"
        },
        "360728": {
          "code": "360728",
          "longitude": 115.0278425,
          "latitude": 24.7844066,
          "name": "定南县"
        },
        "latitude": 25.8628246,
        "name": "赣州市",
        "360726": {
          "code": "360726",
          "longitude": 115.3939211,
          "latitude": 25.1369222,
          "name": "安远县"
        },
        "360781": {
          "code": "360781",
          "longitude": 116.0271263,
          "latitude": 25.8855582,
          "name": "瑞金市"
        },
        "code": "3607",
        "360727": {
          "code": "360727",
          "longitude": 114.7898126,
          "latitude": 24.9111062,
          "name": "龙南县"
        },
        "360701": {
          "code": "360701",
          "longitude": null,
          "latitude": null,
          "name": "市辖区"
        },
        "360733": {
          "code": "360733",
          "longitude": 115.7860601,
          "latitude": 25.6002768,
          "name": "会昌县"
        },
        "360735": {
          "code": "360735",
          "longitude": 116.3434768,
          "latitude": 26.3265663,
          "name": "石城县"
        },
        "360702": {
          "code": "360702",
          "longitude": 114.9418294,
          "latitude": 25.8628246,
          "name": "章贡区"
        },
        "360723": {
          "code": "360723",
          "longitude": 114.3580842,
          "latitude": 25.3952016,
          "name": "大余县"
        },
        "360722": {
          "code": "360722",
          "longitude": 114.9229681,
          "latitude": 25.3862748,
          "name": "信丰县"
        },
        "360730": {
          "code": "360730",
          "longitude": 116.0131466,
          "latitude": 26.4712549,
          "name": "宁都县"
        },
        "360721": {
          "code": "360721",
          "longitude": 115.0116098,
          "latitude": 25.8606621,
          "name": "赣县"
        },
        "360725": {
          "code": "360725",
          "longitude": 114.3082702,
          "latitude": 25.6818818,
          "name": "崇义县"
        },
        "360703": {
          "code": "360703",
          "longitude": null,
          "latitude": null,
          "name": "南康区"
        },
        "360732": {
          "code": "360732",
          "longitude": 115.3631938,
          "latitude": 26.3379415,
          "name": "兴国县"
        },
        "360729": {
          "code": "360729",
          "longitude": 114.5301318,
          "latitude": 24.7423687,
          "name": "全南县"
        },
        "360731": {
          "code": "360731",
          "longitude": 115.4155076,
          "latitude": 25.9520637,
          "name": "于都县"
        },
        "360724": {
          "code": "360724",
          "longitude": 114.5372236,
          "latitude": 25.7908014,
          "name": "上犹县"
        }
      },
      "code": "36",
      "3608": {
        "360826": {
          "code": "360826",
          "longitude": 114.9088597,
          "latitude": 26.7902299,
          "name": "泰和县"
        },
        "longitude": 114.9929094,
        "360830": {
          "code": "360830",
          "longitude": 114.2426741,
          "latitude": 26.9452366,
          "name": "永新县"
        },
        "360824": {
          "code": "360824",
          "longitude": 115.3975689,
          "latitude": 27.7557093,
          "name": "新干县"
        },
        "360828": {
          "code": "360828",
          "longitude": 114.7862506,
          "latitude": 26.45826,
          "name": "万安县"
        },
        "latitude": 27.113038,
        "360881": {
          "code": "360881",
          "longitude": 114.1008174,
          "latitude": 26.5871456,
          "name": "井冈山市"
        },
        "360822": {
          "code": "360822",
          "longitude": 115.1338649,
          "latitude": 27.2098982,
          "name": "吉水县"
        },
        "360801": {
          "code": "360801",
          "longitude": null,
          "latitude": null,
          "name": "市辖区"
        },
        "code": "3608",
        "360823": {
          "code": "360823",
          "longitude": 115.3165662,
          "latitude": 27.5828981,
          "name": "峡江县"
        },
        "360825": {
          "code": "360825",
          "longitude": 115.4414821,
          "latitude": 27.3178658,
          "name": "永丰县"
        },
        "360821": {
          "code": "360821",
          "longitude": 114.9076581,
          "latitude": 27.0401395,
          "name": "吉安县"
        },
        "360802": {
          "code": "360802",
          "longitude": 114.9759901,
          "latitude": 27.1066968,
          "name": "吉州区"
        },
        "360827": {
          "code": "360827",
          "longitude": 114.5142424,
          "latitude": 26.3249604,
          "name": "遂川县"
        },